{
    "offices": [
        {
            "name": "Фирменный салон ESTET",
            "addres": "Советский район, ул. Бекетова, д.13, литер \"А\", СЦ Бекетов, 3 ",
            "city": "Нижний Новгород",
            "coordinates": {
                "longitude": 56.290781,
                "latitude": 43.997808
            },
            "phone": "88005523986",
            "site": "/"
        },
        {
            "name": "Фирменный салон ESTET",
            "addres": "г. Новокузнецк, Октябрьский проспект, 13",
            "city": "Новокузнецк",
            "coordinates": {
                "longitude": 53.754449,
                "latitude": 87.142071
            },
            "phone": "88005533986",
            "site": "/"
        },
        {
            "name": "Фирменный салон ESTET",
            "addres": "г. Хабаровск, ул. Ленинградская 28, ТЦ ЭкоДом, сектор дверей",
            "city": "Хабаровск",
            "coordinates": {
                "longitude": 48.486083,
                "latitude": 135.091484
            },
            "phone": "88005543986",
            "site": "/"
        },
        {
            "name": "Фирменный салон ESTET",
            "addres": "г. Самара, ул. Красноармейская, д.1, ТЦ \"Кубатура\", к. 1, 1 этаж, секция 117.6",
            "city": "Самара",
            "coordinates": {
                "longitude": 53.195069,
                "latitude": 50.090562
            },
            "phone": "88005553986",
            "site": "/"
        },
        {
            "name": "Фирменный салон ESTET",
            "addres": "г. Ульяновск, ул.Шолмова 20, ТЦ СтройГрад, 3 этаж, салон 85",
            "city": "Ульяновск",
            "coordinates": {
                "longitude": 54.269651,
                "latitude": 48.307413
            },
            "phone": "88005553986",
            "site": "/"
        },
        {
            "name": "Фирменный салон ESTET",
            "addres": "улица Невзоровых, 64к1, Нижний Новгород",
            "city": "Нижний Новгород",
            "coordinates": {
                "longitude": 56.316111,
                "latitude": 44.021498
            },
            "phone": "88005553986",
            "site": "/"
        }
    ]
}